[
{
    "id": 1627896,
    "name": "Semarang",
    "state": "",
    "country": "ID",
    "coord": {
        "lon": 110.420303,
        "lat": -6.9932
    }
},
{
    "id": 1627908,
    "name": "Semanggi",
    "state": "",
    "country": "ID",
    "coord": {
        "lon": 111.428101,
        "lat": -7.0591
    }
},
{
    "id": 1627915,
    "name": "Semamung",
    "state": "",
    "country": "ID",
    "coord": {
        "lon": 117.428802,
        "lat": -8.6515
    }
},
{
    "id": 1627953,
    "name": "Selorejo",
    "state": "",
    "country": "ID",
    "coord": {
        "lon": 112.425697,
        "lat": -8.1392
    }
},
{
    "id": 1627956,
    "name": "Selopuro",
    "state": "",
    "country": "ID",
    "coord": {
        "lon": 112.308601,
        "lat": -8.1449
    }
},
{
    "id": 1627957,
    "name": "Selong",
    "state": "",
    "country": "ID",
    "coord": {
        "lon": 116.531799,
        "lat": -8.6503
    }
}
]